[
  {
    "name": "Bonanza Bar",
    "address": "Av. de Bonanza, Benalmádena",
    "lat": 36.596842,
    "lng": -4.528991,
    "categories": ["bar", "cocktails"],
    "music": "commercial",
    "price": "€€",
    "age_group": "25-40",
    "images": ["https://source.unsplash.com/random/800x600?bar"],
    "vibe_score": 78,
    "open_hours": "18:00-02:00",
    "description": "Lively social bar in the heart of Bonanza Square with great cocktails and a mixed crowd."
  },
  {
    "name": "Ibensa Pub",
    "address": "Plaza de Ibensa, Benalmádena",
    "lat": 36.595912,
    "lng": -4.528221,
    "categories": ["pub", "sports"],
    "music": "mixed",
    "price": "€",
    "age_group": "20-50",
    "images": ["https://source.unsplash.com/random/800x600?pub"],
    "vibe_score": 74,
    "open_hours": "12:00-02:00",
    "description": "Classic British-style pub with sports screens, cheap drinks, and a friendly atmosphere."
  },
  {
    "name": "Molly Malone’s",
    "address": "Puerto Marina, Benalmádena",
    "lat": 36.596210,
    "lng": -4.515820,
    "categories": ["pub", "live music"],
    "music": "live bands",
    "price": "€€",
    "age_group": "25-55",
    "images": ["https://source.unsplash.com/random/800x600?livemusic"],
    "vibe_score": 82,
    "open_hours": "17:00-03:00",
    "description": "Irish pub in Puerto Marina with live music every night and a buzzing tourist crowd."
  },
  {
    "name": "Kiu Nightclub",
    "address": "Plaza Solymar, Benalmádena",
    "lat": 36.594820,
    "lng": -4.532210,
    "categories": ["club"],
    "music": "reggaeton",
    "price": "€€€",
    "age_group": "18-30",
    "images": ["https://source.unsplash.com/random/800x600?club"],
    "vibe_score": 88,
    "open_hours": "23:00-06:00",
    "description": "Benalmádena’s biggest nightclub with multiple rooms, DJs, and a late-night party crowd."
  },
  {
    "name": "Maracas Beach Bar",
    "address": "Playa Santa Ana, Benalmádena",
    "lat": 36.596540,
    "lng": -4.520910,
    "categories": ["beach bar", "cocktails"],
    "music": "house",
    "price": "€€",
    "age_group": "20-40",
    "images": ["https://source.unsplash.com/random/800x600?beachbar"],
    "vibe_score": 80,
    "open_hours": "12:00-02:00",
    "description": "Trendy beach bar with DJs, cocktails, and a sunset crowd."
  },
  {
    "name": "The Drunken Sailor",
    "address": "Puerto Marina, Benalmádena",
    "lat": 36.596880,
    "lng": -4.515300,
    "categories": ["pub"],
    "music": "commercial",
    "price": "€",
    "age_group": "25-50",
    "images": ["https://source.unsplash.com/random/800x600?beer"],
    "vibe_score": 70,
    "open_hours": "16:00-02:00",
    "description": "Relaxed marina pub with cheap drinks and a friendly expat crowd."
  },
  {
    "name": "La Cubana",
    "address": "Playa de Bil Bil, Benalmádena",
    "lat": 36.594210,
    "lng": -4.525110,
    "categories": ["beach bar"],
    "music": "latin",
    "price": "€€",
    "age_group": "20-45",
    "images": ["https://source.unsplash.com/random/800x600?cocktail"],
    "vibe_score": 76,
    "open_hours": "12:00-02:00",
    "description": "Colorful beach bar with Latin vibes, mojitos, and a young energetic crowd."
  },
  {
    "name": "Elefante Café",
    "address": "Arroyo de la Miel, Benalmádena",
    "lat": 36.603410,
    "lng": -4.536210,
    "categories": ["café", "lounge"],
    "music": "chill",
    "price": "€€",
    "age_group": "25-50",
    "images": ["https://source.unsplash.com/random/800x600?cafe"],
    "vibe_score": 72,
    "open_hours": "10:00-01:00",
    "description": "Stylish café-lounge perfect for pre-drinks or a relaxed evening."
  },
  {
    "name": "Shamrock Irish Bar",
    "address": "Av. Antonio Machado, Benalmádena",
    "lat": 36.594910,
    "lng": -4.522810,
    "categories": ["pub", "sports"],
    "music": "rock",
    "price": "€",
    "age_group": "20-60",
    "images": ["https://source.unsplash.com/random/800x600?irishpub"],
    "vibe_score": 73,
    "open_hours": "12:00-02:00",
    "description": "Irish pub with sports screens, Guinness on tap, and a lively atmosphere."
  },
  {
    "name": "Discoteca Solymar",
    "address": "Plaza Solymar, Benalmádena",
    "lat": 36.594510,
    "lng": -4.532510,
    "categories": ["club"],
    "music": "EDM",
    "price": "€€€",
    "age_group": "18-30",
    "images": ["https://source.unsplash.com/random/800x600?party"],
    "vibe_score": 85,
    "open_hours": "23:00-06:00",
    "description": "High-energy nightclub with EDM DJs and a packed dancefloor every weekend."
  }
]
